{
  "type": "FeatureCollection",
  "features": [
    { "type": "Feature", "geometry": { "type": "Point", "coordinates": [106.8451, -6.2146] }, "properties": { "id": "jakarta_cbd_subsidence", "name": "Jakarta CBD Subsidence Zone", "type": "building", "module": "ground_shift", "risk_level": "dangerous", "risk_score": 94, "current_rate_mm_mo": -21.3 } },
    { "type": "Feature", "geometry": { "type": "Point", "coordinates": [79.5824, 30.4672] }, "properties": { "id": "chamoli_avalanche_scar", "name": "Chamoli Rock-Ice Avalanche Scar", "type": "slope", "module": "slope", "risk_level": "dangerous", "risk_score": 91, "current_rate_mm_mo": -18.7 } },
    { "type": "Feature", "geometry": { "type": "Point", "coordinates": [29.0564, 41.0877] }, "properties": { "id": "bosphorus_fsm_bridge", "name": "Bosphorus Bridge FSM", "type": "bridge", "module": "bridge", "risk_level": "concerning", "risk_score": 67, "current_rate_mm_mo": -5.8 } },
    { "type": "Feature", "geometry": { "type": "Point", "coordinates": [121.4993, 31.2397] }, "properties": { "id": "shanghai_pudong_subsidence", "name": "Shanghai Pudong Tower District", "type": "building", "module": "ground_shift", "risk_level": "dangerous", "risk_score": 89, "current_rate_mm_mo": -8.9 } },
    { "type": "Feature", "geometry": { "type": "Point", "coordinates": [-90.0674, 29.9437] }, "properties": { "id": "crescent_city_connection", "name": "Crescent City Connection Bridge", "type": "bridge", "module": "bridge", "risk_level": "concerning", "risk_score": 68, "current_rate_mm_mo": -4.2 } },
    { "type": "Feature", "geometry": { "type": "Point", "coordinates": [-121.7267, 46.8523] }, "properties": { "id": "rainier_se_flank", "name": "Mount Rainier SE Flank", "type": "slope", "module": "slope", "risk_level": "concerning", "risk_score": 72, "current_rate_mm_mo": -7.4 } },
    { "type": "Feature", "geometry": { "type": "Point", "coordinates": [3.4219, 6.4281] }, "properties": { "id": "victoria_island_lagos", "name": "Victoria Island Lagos", "type": "building", "module": "ground_shift", "risk_level": "concerning", "risk_score": 65, "current_rate_mm_mo": -6.3 } },
    { "type": "Feature", "geometry": { "type": "Point", "coordinates": [0.0402, 51.4989] }, "properties": { "id": "thames_barrier_london", "name": "Thames Barrier Approach", "type": "bridge", "module": "bridge", "risk_level": "monitor", "risk_score": 34, "current_rate_mm_mo": -1.4 } },
    { "type": "Feature", "geometry": { "type": "Point", "coordinates": [139.7750, 35.6267] }, "properties": { "id": "odaiba_tokyo", "name": "Odaiba Reclaimed Island", "type": "building", "module": "ground_shift", "risk_level": "monitor", "risk_score": 28, "current_rate_mm_mo": -0.9 } },
    { "type": "Feature", "geometry": { "type": "Point", "coordinates": [-99.1332, 19.4326] }, "properties": { "id": "mexico_city_historic", "name": "Mexico City Historic Centre", "type": "building", "module": "ground_shift", "risk_level": "dangerous", "risk_score": 96, "current_rate_mm_mo": -11.8 } },

    { "type": "Feature", "geometry": { "type": "Point", "coordinates": [45.3182, -11.7022] }, "properties": { "id": "bg_001", "name": "Moroni Coastal Zone", "type": "building", "module": "ground_shift", "risk_level": "concerning", "risk_score": 58, "current_rate_mm_mo": -4.1 } },
    { "type": "Feature", "geometry": { "type": "Point", "coordinates": [32.5825, 0.3476] }, "properties": { "id": "bg_002", "name": "Kampala Hillside Settlement", "type": "building", "module": "ground_shift", "risk_level": "monitor", "risk_score": 32, "current_rate_mm_mo": -1.2 } },
    { "type": "Feature", "geometry": { "type": "Point", "coordinates": [31.2357, 30.0444] }, "properties": { "id": "bg_003", "name": "Cairo Giza Subsidence Zone", "type": "building", "module": "ground_shift", "risk_level": "concerning", "risk_score": 61, "current_rate_mm_mo": -5.2 } },
    { "type": "Feature", "geometry": { "type": "Point", "coordinates": [36.8219, -1.2921] }, "properties": { "id": "bg_004", "name": "Nairobi CBD Foundation Zone", "type": "building", "module": "ground_shift", "risk_level": "concerning", "risk_score": 54, "current_rate_mm_mo": -3.8 } },
    { "type": "Feature", "geometry": { "type": "Point", "coordinates": [-7.5900, 33.5731] }, "properties": { "id": "bg_005", "name": "Casablanca Coastal District", "type": "building", "module": "ground_shift", "risk_level": "stable", "risk_score": 14, "current_rate_mm_mo": -0.4 } },
    { "type": "Feature", "geometry": { "type": "Point", "coordinates": [12.3155, 45.4408] }, "properties": { "id": "bg_006", "name": "Venice Lagoon Settlement", "type": "building", "module": "ground_shift", "risk_level": "dangerous", "risk_score": 87, "current_rate_mm_mo": -9.7 } },
    { "type": "Feature", "geometry": { "type": "Point", "coordinates": [4.9041, 52.3676] }, "properties": { "id": "bg_007", "name": "Amsterdam Canal Zone", "type": "building", "module": "ground_shift", "risk_level": "concerning", "risk_score": 63, "current_rate_mm_mo": -4.4 } },
    { "type": "Feature", "geometry": { "type": "Point", "coordinates": [4.4777, 51.9244] }, "properties": { "id": "bg_008", "name": "Rotterdam Port Bridge", "type": "bridge", "module": "bridge", "risk_level": "monitor", "risk_score": 37, "current_rate_mm_mo": -1.5 } },
    { "type": "Feature", "geometry": { "type": "Point", "coordinates": [21.0122, 52.2297] }, "properties": { "id": "bg_009", "name": "Warsaw Vistula Bridge", "type": "bridge", "module": "bridge", "risk_level": "concerning", "risk_score": 55, "current_rate_mm_mo": -3.3 } },
    { "type": "Feature", "geometry": { "type": "Point", "coordinates": [10.7522, 59.9139] }, "properties": { "id": "bg_010", "name": "Oslo Fjord Slope", "type": "slope", "module": "slope", "risk_level": "concerning", "risk_score": 60, "current_rate_mm_mo": -4.9 } },
    { "type": "Feature", "geometry": { "type": "Point", "coordinates": [120.9842, 14.5995] }, "properties": { "id": "bg_011", "name": "Manila Bay Reclamation", "type": "building", "module": "ground_shift", "risk_level": "concerning", "risk_score": 66, "current_rate_mm_mo": -5.5 } },
    { "type": "Feature", "geometry": { "type": "Point", "coordinates": [100.5018, 13.7563] }, "properties": { "id": "bg_012", "name": "Bangkok Sukhumvit Zone", "type": "building", "module": "ground_shift", "risk_level": "dangerous", "risk_score": 82, "current_rate_mm_mo": -7.8 } },
    { "type": "Feature", "geometry": { "type": "Point", "coordinates": [106.6297, 10.8231] }, "properties": { "id": "bg_013", "name": "Ho Chi Minh City Core", "type": "building", "module": "ground_shift", "risk_level": "concerning", "risk_score": 70, "current_rate_mm_mo": -6.1 } },
    { "type": "Feature", "geometry": { "type": "Point", "coordinates": [90.3563, 23.8103] }, "properties": { "id": "bg_014", "name": "Dhaka Gulshan Settlement", "type": "building", "module": "ground_shift", "risk_level": "dangerous", "risk_score": 90, "current_rate_mm_mo": -14.2 } },
    { "type": "Feature", "geometry": { "type": "Point", "coordinates": [72.8777, 19.0760] }, "properties": { "id": "bg_015", "name": "Mumbai Coastal Road", "type": "bridge", "module": "bridge", "risk_level": "monitor", "risk_score": 40, "current_rate_mm_mo": -1.8 } },
    { "type": "Feature", "geometry": { "type": "Point", "coordinates": [126.9780, 37.5665] }, "properties": { "id": "bg_016", "name": "Seoul Songpa Bridge", "type": "bridge", "module": "bridge", "risk_level": "monitor", "risk_score": 29, "current_rate_mm_mo": -0.9 } },
    { "type": "Feature", "geometry": { "type": "Point", "coordinates": [121.5654, 25.0330] }, "properties": { "id": "bg_017", "name": "Taipei Xinyi District", "type": "building", "module": "ground_shift", "risk_level": "concerning", "risk_score": 58, "current_rate_mm_mo": -3.5 } },
    { "type": "Feature", "geometry": { "type": "Point", "coordinates": [113.2644, 23.1291] }, "properties": { "id": "bg_018", "name": "Guangzhou Metro Subsidence", "type": "building", "module": "ground_shift", "risk_level": "monitor", "risk_score": 36, "current_rate_mm_mo": -1.4 } },
    { "type": "Feature", "geometry": { "type": "Point", "coordinates": [135.5023, 34.6937] }, "properties": { "id": "bg_019", "name": "Osaka Bay Reclamation", "type": "building", "module": "ground_shift", "risk_level": "stable", "risk_score": 18, "current_rate_mm_mo": -0.5 } },
    { "type": "Feature", "geometry": { "type": "Point", "coordinates": [129.0756, 35.1796] }, "properties": { "id": "bg_020", "name": "Busan Port Bridge", "type": "bridge", "module": "bridge", "risk_level": "monitor", "risk_score": 25, "current_rate_mm_mo": -0.8 } },
    { "type": "Feature", "geometry": { "type": "Point", "coordinates": [-89.9928, 29.9499] }, "properties": { "id": "bg_021", "name": "New Orleans St Bernard Parish", "type": "building", "module": "ground_shift", "risk_level": "dangerous", "risk_score": 85, "current_rate_mm_mo": -9.4 } },
    { "type": "Feature", "geometry": { "type": "Point", "coordinates": [-80.1918, 25.7617] }, "properties": { "id": "bg_022", "name": "Miami South Beach Subsidence", "type": "building", "module": "ground_shift", "risk_level": "concerning", "risk_score": 64, "current_rate_mm_mo": -4.6 } },
    { "type": "Feature", "geometry": { "type": "Point", "coordinates": [-122.4194, 37.7749] }, "properties": { "id": "bg_023", "name": "San Francisco Mission District", "type": "building", "module": "ground_shift", "risk_level": "monitor", "risk_score": 38, "current_rate_mm_mo": -1.6 } },
    { "type": "Feature", "geometry": { "type": "Point", "coordinates": [-77.0428, -12.0464] }, "properties": { "id": "bg_024", "name": "Lima Coastal Subsidence Zone", "type": "building", "module": "ground_shift", "risk_level": "dangerous", "risk_score": 83, "current_rate_mm_mo": -8.3 } },
    { "type": "Feature", "geometry": { "type": "Point", "coordinates": [-74.0721, 4.7110] }, "properties": { "id": "bg_025", "name": "Bogota Cerros Slope", "type": "slope", "module": "slope", "risk_level": "concerning", "risk_score": 62, "current_rate_mm_mo": -5.1 } },
    { "type": "Feature", "geometry": { "type": "Point", "coordinates": [-46.6333, -23.5505] }, "properties": { "id": "bg_026", "name": "Sao Paulo MASP Zone", "type": "building", "module": "ground_shift", "risk_level": "concerning", "risk_score": 56, "current_rate_mm_mo": -3.4 } },
    { "type": "Feature", "geometry": { "type": "Point", "coordinates": [-58.3816, -34.6037] }, "properties": { "id": "bg_027", "name": "Buenos Aires Coastal District", "type": "building", "module": "ground_shift", "risk_level": "monitor", "risk_score": 30, "current_rate_mm_mo": -1.0 } },
    { "type": "Feature", "geometry": { "type": "Point", "coordinates": [-123.1207, 49.2827] }, "properties": { "id": "bg_028", "name": "Vancouver North Shore Slope", "type": "slope", "module": "slope", "risk_level": "monitor", "risk_score": 43, "current_rate_mm_mo": -2.2 } },
    { "type": "Feature", "geometry": { "type": "Point", "coordinates": [55.1713, 25.2048] }, "properties": { "id": "bg_029", "name": "Dubai Creek Bridge", "type": "bridge", "module": "bridge", "risk_level": "stable", "risk_score": 12, "current_rate_mm_mo": -0.3 } },
    { "type": "Feature", "geometry": { "type": "Point", "coordinates": [34.7818, 32.0853] }, "properties": { "id": "bg_030", "name": "Tel Aviv Coastal Settlement", "type": "building", "module": "ground_shift", "risk_level": "monitor", "risk_score": 33, "current_rate_mm_mo": -1.1 } },
    { "type": "Feature", "geometry": { "type": "Point", "coordinates": [151.2093, -33.8688] }, "properties": { "id": "bg_031", "name": "Sydney Harbour Bridge", "type": "bridge", "module": "bridge", "risk_level": "monitor", "risk_score": 26, "current_rate_mm_mo": -0.7 } },
    { "type": "Feature", "geometry": { "type": "Point", "coordinates": [174.7633, -36.8485] }, "properties": { "id": "bg_032", "name": "Auckland Harbour Zone", "type": "building", "module": "ground_shift", "risk_level": "stable", "risk_score": 11, "current_rate_mm_mo": -0.2 } },
    { "type": "Feature", "geometry": { "type": "Point", "coordinates": [144.9631, -37.8136] }, "properties": { "id": "bg_033", "name": "Melbourne Docklands Settlement", "type": "building", "module": "ground_shift", "risk_level": "monitor", "risk_score": 27, "current_rate_mm_mo": -0.9 } },
    { "type": "Feature", "geometry": { "type": "Point", "coordinates": [153.0251, -27.4698] }, "properties": { "id": "bg_034", "name": "Brisbane Story Bridge", "type": "bridge", "module": "bridge", "risk_level": "stable", "risk_score": 8, "current_rate_mm_mo": -0.2 } },
    { "type": "Feature", "geometry": { "type": "Point", "coordinates": [-9.1393, 38.7223] }, "properties": { "id": "bg_035", "name": "Lisbon Tagus Bridge", "type": "bridge", "module": "bridge", "risk_level": "monitor", "risk_score": 31, "current_rate_mm_mo": -1.2 } },
    { "type": "Feature", "geometry": { "type": "Point", "coordinates": [-3.7038, 40.4168] }, "properties": { "id": "bg_036", "name": "Madrid Metro Subsidence", "type": "building", "module": "ground_shift", "risk_level": "stable", "risk_score": 16, "current_rate_mm_mo": -0.5 } },
    { "type": "Feature", "geometry": { "type": "Point", "coordinates": [67.0099, 24.8607] }, "properties": { "id": "bg_037", "name": "Karachi Port Bridge", "type": "bridge", "module": "bridge", "risk_level": "concerning", "risk_score": 57, "current_rate_mm_mo": -3.9 } },
    { "type": "Feature", "geometry": { "type": "Point", "coordinates": [96.1561, 16.8409] }, "properties": { "id": "bg_038", "name": "Yangon Downtown Zone", "type": "building", "module": "ground_shift", "risk_level": "monitor", "risk_score": 35, "current_rate_mm_mo": -1.4 } },
    { "type": "Feature", "geometry": { "type": "Point", "coordinates": [79.8612, 6.9271] }, "properties": { "id": "bg_039", "name": "Colombo Port Access", "type": "bridge", "module": "bridge", "risk_level": "stable", "risk_score": 9, "current_rate_mm_mo": -0.3 } },
    { "type": "Feature", "geometry": { "type": "Point", "coordinates": [123.3819, 41.8057] }, "properties": { "id": "bg_040", "name": "Shenyang Industrial Subsidence", "type": "building", "module": "ground_shift", "risk_level": "concerning", "risk_score": 59, "current_rate_mm_mo": -4.0 } }
  ]
}
