{
  "type": "FeatureCollection",
  "features": [
    { "type": "Feature", "geometry": { "type": "Point", "coordinates": [77.225, 28.636] }, "properties": { "id": "nhw8_yamuna", "name": "NH-8 Yamuna Bridge", "type": "bridge", "module": "bridge", "risk_level": "dangerous", "risk_score": 91, "current_rate_mm_mo": -9.4 } },
    { "type": "Feature", "geometry": { "type": "Point", "coordinates": [77.302, 28.558] }, "properties": { "id": "dnd_flyway", "name": "DND Flyway", "type": "bridge", "module": "bridge", "risk_level": "concerning", "risk_score": 67, "current_rate_mm_mo": -4.7 } },
    { "type": "Feature", "geometry": { "type": "Point", "coordinates": [77.026, 28.459] }, "properties": { "id": "metro_viaduct_gurugram", "name": "Gurugram Metro Viaduct", "type": "bridge", "module": "bridge", "risk_level": "monitor", "risk_score": 38, "current_rate_mm_mo": -1.2 } },
    { "type": "Feature", "geometry": { "type": "Point", "coordinates": [76.930, 28.695] }, "properties": { "id": "peripheral_expressway", "name": "Peripheral Expressway Bridge", "type": "bridge", "module": "bridge", "risk_level": "stable", "risk_score": 12, "current_rate_mm_mo": -0.3 } },
    { "type": "Feature", "geometry": { "type": "Point", "coordinates": [77.044, 28.590] }, "properties": { "id": "dwarka_subsidence_zone", "name": "Dwarka Sector 23", "type": "building", "module": "ground_shift", "risk_level": "dangerous", "risk_score": 88, "current_rate_mm_mo": -7.1 } },
    { "type": "Feature", "geometry": { "type": "Point", "coordinates": [77.068, 28.735] }, "properties": { "id": "rohini_settlement", "name": "Rohini Phase IV", "type": "building", "module": "ground_shift", "risk_level": "concerning", "risk_score": 62, "current_rate_mm_mo": -3.8 } },
    { "type": "Feature", "geometry": { "type": "Point", "coordinates": [77.392, 28.506] }, "properties": { "id": "noida_expressway_towers", "name": "Noida Expressway Towers", "type": "building", "module": "ground_shift", "risk_level": "monitor", "risk_score": 29, "current_rate_mm_mo": -1.0 } },
    { "type": "Feature", "geometry": { "type": "Point", "coordinates": [77.277, 28.387] }, "properties": { "id": "aravalli_ridge_south", "name": "Aravalli Ridge South Face", "type": "slope", "module": "slope", "risk_level": "dangerous", "risk_score": 85, "current_rate_mm_mo": -11.2 } },
    { "type": "Feature", "geometry": { "type": "Point", "coordinates": [77.073, 28.247] }, "properties": { "id": "sohna_hillslope", "name": "Sohna Road Hillslope", "type": "slope", "module": "slope", "risk_level": "concerning", "risk_score": 58, "current_rate_mm_mo": -5.1 } },
    { "type": "Feature", "geometry": { "type": "Point", "coordinates": [76.934, 28.356] }, "properties": { "id": "manesar_cutting", "name": "NH-48 Manesar Road Cut", "type": "slope", "module": "slope", "risk_level": "monitor", "risk_score": 22, "current_rate_mm_mo": -1.4 } },
    { "type": "Feature", "geometry": { "type": "Point", "coordinates": [77.181, 28.614] }, "properties": { "id": "bg_001", "name": "Patel Nagar Subsidence", "type": "building", "module": "ground_shift", "risk_level": "concerning", "risk_score": 55, "current_rate_mm_mo": -3.2 } },
    { "type": "Feature", "geometry": { "type": "Point", "coordinates": [77.253, 28.669] }, "properties": { "id": "bg_002", "name": "Yamuna Vihar Settlement", "type": "building", "module": "ground_shift", "risk_level": "monitor", "risk_score": 31, "current_rate_mm_mo": -1.1 } },
    { "type": "Feature", "geometry": { "type": "Point", "coordinates": [77.423, 28.571] }, "properties": { "id": "bg_003", "name": "Greater Noida West Block", "type": "building", "module": "ground_shift", "risk_level": "stable", "risk_score": 8, "current_rate_mm_mo": -0.2 } },
    { "type": "Feature", "geometry": { "type": "Point", "coordinates": [77.100, 28.713] }, "properties": { "id": "bg_004", "name": "Shalimar Bagh Zone", "type": "building", "module": "ground_shift", "risk_level": "monitor", "risk_score": 33, "current_rate_mm_mo": -1.3 } },
    { "type": "Feature", "geometry": { "type": "Point", "coordinates": [77.210, 28.524] }, "properties": { "id": "bg_005", "name": "Saket South Settlement", "type": "building", "module": "ground_shift", "risk_level": "concerning", "risk_score": 61, "current_rate_mm_mo": -3.9 } },
    { "type": "Feature", "geometry": { "type": "Point", "coordinates": [77.330, 28.608] }, "properties": { "id": "bg_006", "name": "Laxmi Nagar Towers", "type": "building", "module": "ground_shift", "risk_level": "stable", "risk_score": 14, "current_rate_mm_mo": -0.4 } },
    { "type": "Feature", "geometry": { "type": "Point", "coordinates": [77.145, 28.479] }, "properties": { "id": "bg_007", "name": "Vasant Kunj Sector D", "type": "building", "module": "ground_shift", "risk_level": "dangerous", "risk_score": 80, "current_rate_mm_mo": -6.8 } },
    { "type": "Feature", "geometry": { "type": "Point", "coordinates": [77.057, 28.545] }, "properties": { "id": "bg_008", "name": "Dwarka Sec 12 Zone", "type": "building", "module": "ground_shift", "risk_level": "monitor", "risk_score": 26, "current_rate_mm_mo": -0.9 } },
    { "type": "Feature", "geometry": { "type": "Point", "coordinates": [77.370, 28.492] }, "properties": { "id": "bg_009", "name": "Noida Sec 150 Block", "type": "building", "module": "ground_shift", "risk_level": "stable", "risk_score": 9, "current_rate_mm_mo": -0.2 } },
    { "type": "Feature", "geometry": { "type": "Point", "coordinates": [77.190, 28.763] }, "properties": { "id": "bg_010", "name": "Rohini Sec 21 Settlement", "type": "building", "module": "ground_shift", "risk_level": "concerning", "risk_score": 48, "current_rate_mm_mo": -2.7 } },
    { "type": "Feature", "geometry": { "type": "Point", "coordinates": [77.165, 28.677] }, "properties": { "id": "br_001", "name": "Wazirabad Bridge", "type": "bridge", "module": "bridge", "risk_level": "monitor", "risk_score": 41, "current_rate_mm_mo": -1.5 } },
    { "type": "Feature", "geometry": { "type": "Point", "coordinates": [77.358, 28.621] }, "properties": { "id": "br_002", "name": "Noida Link Road Flyover", "type": "bridge", "module": "bridge", "risk_level": "stable", "risk_score": 17, "current_rate_mm_mo": -0.5 } },
    { "type": "Feature", "geometry": { "type": "Point", "coordinates": [77.082, 28.613] }, "properties": { "id": "br_003", "name": "Dhaula Kuan Overpass", "type": "bridge", "module": "bridge", "risk_level": "concerning", "risk_score": 64, "current_rate_mm_mo": -4.2 } },
    { "type": "Feature", "geometry": { "type": "Point", "coordinates": [77.240, 28.733] }, "properties": { "id": "br_004", "name": "GTK Road Rail Bridge", "type": "bridge", "module": "bridge", "risk_level": "dangerous", "risk_score": 78, "current_rate_mm_mo": -7.9 } },
    { "type": "Feature", "geometry": { "type": "Point", "coordinates": [77.115, 28.481] }, "properties": { "id": "br_005", "name": "NH-48 Mahipalpur Fly", "type": "bridge", "module": "bridge", "risk_level": "stable", "risk_score": 11, "current_rate_mm_mo": -0.3 } },
    { "type": "Feature", "geometry": { "type": "Point", "coordinates": [76.998, 28.493] }, "properties": { "id": "br_006", "name": "Kherki Daula Viaduct", "type": "bridge", "module": "bridge", "risk_level": "monitor", "risk_score": 35, "current_rate_mm_mo": -1.2 } },
    { "type": "Feature", "geometry": { "type": "Point", "coordinates": [77.316, 28.544] }, "properties": { "id": "br_007", "name": "FNG Expressway Bridge", "type": "bridge", "module": "bridge", "risk_level": "stable", "risk_score": 6, "current_rate_mm_mo": -0.1 } },
    { "type": "Feature", "geometry": { "type": "Point", "coordinates": [77.198, 28.558] }, "properties": { "id": "br_008", "name": "Ring Road INA Fly", "type": "bridge", "module": "bridge", "risk_level": "concerning", "risk_score": 53, "current_rate_mm_mo": -3.1 } },
    { "type": "Feature", "geometry": { "type": "Point", "coordinates": [77.155, 28.649] }, "properties": { "id": "br_009", "name": "Shastri Park Metro Bridge", "type": "bridge", "module": "bridge", "risk_level": "monitor", "risk_score": 28, "current_rate_mm_mo": -0.9 } },
    { "type": "Feature", "geometry": { "type": "Point", "coordinates": [77.280, 28.648] }, "properties": { "id": "br_010", "name": "Vivek Vihar Overpass", "type": "bridge", "module": "bridge", "risk_level": "stable", "risk_score": 15, "current_rate_mm_mo": -0.4 } },
    { "type": "Feature", "geometry": { "type": "Point", "coordinates": [77.307, 28.403] }, "properties": { "id": "sl_001", "name": "Faridabad Ridge West", "type": "slope", "module": "slope", "risk_level": "concerning", "risk_score": 56, "current_rate_mm_mo": -4.1 } },
    { "type": "Feature", "geometry": { "type": "Point", "coordinates": [77.032, 28.312] }, "properties": { "id": "sl_002", "name": "Nuh Hills North Scarp", "type": "slope", "module": "slope", "risk_level": "monitor", "risk_score": 32, "current_rate_mm_mo": -1.3 } },
    { "type": "Feature", "geometry": { "type": "Point", "coordinates": [77.218, 28.358] }, "properties": { "id": "sl_003", "name": "Bandhwari Quarry Slope", "type": "slope", "module": "slope", "risk_level": "dangerous", "risk_score": 82, "current_rate_mm_mo": -9.8 } },
    { "type": "Feature", "geometry": { "type": "Point", "coordinates": [76.972, 28.401] }, "properties": { "id": "sl_004", "name": "Gurgaon Aravalli Cut", "type": "slope", "module": "slope", "risk_level": "monitor", "risk_score": 24, "current_rate_mm_mo": -0.8 } },
    { "type": "Feature", "geometry": { "type": "Point", "coordinates": [77.127, 28.279] }, "properties": { "id": "sl_005", "name": "Palwal Hills Road Cut", "type": "slope", "module": "slope", "risk_level": "stable", "risk_score": 10, "current_rate_mm_mo": -0.3 } },
    { "type": "Feature", "geometry": { "type": "Point", "coordinates": [77.345, 28.319] }, "properties": { "id": "sl_006", "name": "Faridabad SE Scarp", "type": "slope", "module": "slope", "risk_level": "concerning", "risk_score": 60, "current_rate_mm_mo": -4.4 } },
    { "type": "Feature", "geometry": { "type": "Point", "coordinates": [77.000, 28.263] }, "properties": { "id": "sl_007", "name": "Tauru Aravalli Face", "type": "slope", "module": "slope", "risk_level": "stable", "risk_score": 13, "current_rate_mm_mo": -0.4 } },
    { "type": "Feature", "geometry": { "type": "Point", "coordinates": [77.175, 28.439] }, "properties": { "id": "sl_008", "name": "Ghata Village Slope", "type": "slope", "module": "slope", "risk_level": "dangerous", "risk_score": 76, "current_rate_mm_mo": -8.2 } },
    { "type": "Feature", "geometry": { "type": "Point", "coordinates": [77.058, 28.357] }, "properties": { "id": "sl_009", "name": "Badshahpur Road Cut", "type": "slope", "module": "slope", "risk_level": "monitor", "risk_score": 27, "current_rate_mm_mo": -1.0 } },
    { "type": "Feature", "geometry": { "type": "Point", "coordinates": [77.262, 28.290] }, "properties": { "id": "sl_010", "name": "Ballabhgarh Hills E", "type": "slope", "module": "slope", "risk_level": "concerning", "risk_score": 49, "current_rate_mm_mo": -3.3 } },
    { "type": "Feature", "geometry": { "type": "Point", "coordinates": [77.135, 28.594] }, "properties": { "id": "bg_011", "name": "Karol Bagh Zone", "type": "building", "module": "ground_shift", "risk_level": "monitor", "risk_score": 37, "current_rate_mm_mo": -1.4 } },
    { "type": "Feature", "geometry": { "type": "Point", "coordinates": [77.272, 28.601] }, "properties": { "id": "bg_012", "name": "Preet Vihar Block", "type": "building", "module": "ground_shift", "risk_level": "stable", "risk_score": 7, "current_rate_mm_mo": -0.2 } },
    { "type": "Feature", "geometry": { "type": "Point", "coordinates": [77.020, 28.578] }, "properties": { "id": "bg_013", "name": "Dwarka Sec 6 North", "type": "building", "module": "ground_shift", "risk_level": "dangerous", "risk_score": 83, "current_rate_mm_mo": -7.3 } },
    { "type": "Feature", "geometry": { "type": "Point", "coordinates": [77.341, 28.678] }, "properties": { "id": "bg_014", "name": "Anand Vihar Towers", "type": "building", "module": "ground_shift", "risk_level": "monitor", "risk_score": 30, "current_rate_mm_mo": -1.0 } },
    { "type": "Feature", "geometry": { "type": "Point", "coordinates": [77.093, 28.642] }, "properties": { "id": "bg_015", "name": "Pitam Pura Settlement", "type": "building", "module": "ground_shift", "risk_level": "concerning", "risk_score": 57, "current_rate_mm_mo": -3.5 } },
    { "type": "Feature", "geometry": { "type": "Point", "coordinates": [77.199, 28.663] }, "properties": { "id": "bg_016", "name": "Mukherjee Nagar Block", "type": "building", "module": "ground_shift", "risk_level": "stable", "risk_score": 16, "current_rate_mm_mo": -0.5 } },
    { "type": "Feature", "geometry": { "type": "Point", "coordinates": [77.315, 28.712] }, "properties": { "id": "bg_017", "name": "Shahdara Zone North", "type": "building", "module": "ground_shift", "risk_level": "concerning", "risk_score": 52, "current_rate_mm_mo": -3.0 } },
    { "type": "Feature", "geometry": { "type": "Point", "coordinates": [76.955, 28.521] }, "properties": { "id": "bg_018", "name": "Dwarka Sec 25 Block", "type": "building", "module": "ground_shift", "risk_level": "monitor", "risk_score": 34, "current_rate_mm_mo": -1.2 } },
    { "type": "Feature", "geometry": { "type": "Point", "coordinates": [77.407, 28.539] }, "properties": { "id": "bg_019", "name": "GN West Omega Zone", "type": "building", "module": "ground_shift", "risk_level": "stable", "risk_score": 5, "current_rate_mm_mo": -0.1 } },
    { "type": "Feature", "geometry": { "type": "Point", "coordinates": [77.151, 28.528] }, "properties": { "id": "bg_020", "name": "Malviya Nagar South", "type": "building", "module": "ground_shift", "risk_level": "dangerous", "risk_score": 79, "current_rate_mm_mo": -6.4 } }
  ]
}
